{
  "cities": [
    {
      "name": "Aikawa",
      "lat": 35.5274749,
      "lng": 139.3001525
    },
    {
      "name": "Ashikita",
      "lat": 32.3093205,
      "lng": 130.5276558
    },
    {
      "name": "石垣市",
      "lat": 24.3444441,
      "lng": 124.1851857
    },
    {
      "name": "寒河江市",
      "lat": 38.3808731,
      "lng": 140.2759709
    },
    {
      "name": "五泉市",
      "lat": 37.7444474,
      "lng": 139.1826005
    },
    {
      "name": "阿賀野市",
      "lat": 37.8343618,
      "lng": 139.2258539
    },
    {
      "name": "三条市",
      "lat": 37.6361174,
      "lng": 138.9613971
    },
    {
      "name": "東京都",
      "lat": 35.6768601,
      "lng": 139.7638947
    },
    {
      "name": "いわき市",
      "lat": 37.0504227,
      "lng": 140.8876338
    },
    {
      "name": "新庄市",
      "lat": 38.7648577,
      "lng": 140.3021449
    },
    {
      "name": "尾花沢市",
      "lat": 38.6006499,
      "lng": 140.406101
    },
    {
      "name": "東根市",
      "lat": 38.4312437,
      "lng": 140.391304
    },
    {
      "name": "天童市",
      "lat": 38.3624343,
      "lng": 140.3772634
    },
    {
      "name": "山形市",
      "lat": 38.2553393,
      "lng": 140.3400205
    },
    {
      "name": "米沢市",
      "lat": 37.9218342,
      "lng": 140.1161931
    },
    {
      "name": "上山市",
      "lat": 38.1494956,
      "lng": 140.2677993
    },
    {
      "name": "常陸太田市",
      "lat": 36.5373021,
      "lng": 140.5308393
    },
    {
      "name": "目黒区",
      "lat": 35.6412891,
      "lng": 139.6983834
    },
    {
      "name": "世田谷区",
      "lat": 35.6469025,
      "lng": 139.652531
    },
    {
      "name": "渋谷区",
      "lat": 35.6633709,
      "lng": 139.6964952
    },
    {
      "name": "港区",
      "lat": 35.6580089,
      "lng": 139.7515137
    },
    {
      "name": "川崎市",
      "lat": 35.5306639,
      "lng": 139.7037668
    },
    {
      "name": "笠間市",
      "lat": 36.3452244,
      "lng": 140.3042261
    },
    {
      "name": "小美玉市",
      "lat": 36.2389756,
      "lng": 140.3523684
    },
    {
      "name": "かすみがうら市",
      "lat": 36.1552115,
      "lng": 140.2353307
    },
    {
      "name": "流山市",
      "lat": 35.8555836,
      "lng": 139.9027815
    },
    {
      "name": "柏市",
      "lat": 35.8676218,
      "lng": 139.9756876
    },
    {
      "name": "下野市",
      "lat": 36.3943469,
      "lng": 139.8515863
    },
    {
      "name": "小山市",
      "lat": 36.315537,
      "lng": 139.8006952
    },
    {
      "name": "松戸市",
      "lat": 35.787267,
      "lng": 139.9049043
    },
    {
      "name": "石岡市",
      "lat": 36.1908398,
      "lng": 140.2884101
    },
    {
      "name": "品川区",
      "lat": 35.6092008,
      "lng": 139.7301982
    },
    {
      "name": "杉並区",
      "lat": 35.6994929,
      "lng": 139.6362876
    },
    {
      "name": "新宿区",
      "lat": 35.6937632,
      "lng": 139.7036319
    },
    {
      "name": "見附市",
      "lat": 37.53145,
      "lng": 138.9126572
    },
    {
      "name": "新潟市",
      "lat": 37.9163757,
      "lng": 139.0365062
    },
    {
      "name": "魚沼市",
      "lat": 37.2303274,
      "lng": 138.9611531
    },
    {
      "name": "十日町市",
      "lat": 37.1276085,
      "lng": 138.755504
    },
    {
      "name": "南魚沼市",
      "lat": 37.0655723,
      "lng": 138.8760989
    },
    {
      "name": "長岡市",
      "lat": 37.446996,
      "lng": 138.8512199
    },
    {
      "name": "町田市",
      "lat": 35.5466803,
      "lng": 139.4386999
    },
    {
      "name": "相模原市",
      "lat": 35.5714621,
      "lng": 139.3731052
    },
    {
      "name": "佐渡市",
      "lat": 38.0182578,
      "lng": 138.3683995
    },
    {
      "name": "柏崎市",
      "lat": 37.3719095,
      "lng": 138.5591406
    },
    {
      "name": "上越市",
      "lat": 37.1478816,
      "lng": 138.2359501
    },
    {
      "name": "妙高市",
      "lat": 37.0252467,
      "lng": 138.253635
    },
    {
      "name": "島田市",
      "lat": 34.8361485,
      "lng": 138.1769482
    },
    {
      "name": "田原市",
      "lat": 34.6690304,
      "lng": 137.2637129
    },
    {
      "name": "鳥羽市",
      "lat": 34.4812985,
      "lng": 136.8434721
    },
    {
      "name": "京田辺市",
      "lat": 34.8143918,
      "lng": 135.7677347
    },
    {
      "name": "四條畷市",
      "lat": 34.730447,
      "lng": 135.674005
    },
    {
      "name": "寝屋川市",
      "lat": 34.7660998,
      "lng": 135.6278989
    },
    {
      "name": "さいたま市",
      "lat": 35.8616402,
      "lng": 139.6457957
    },
    {
      "name": "南城市",
      "lat": 26.1632092,
      "lng": 127.7705563
    },
    {
      "name": "うるま市",
      "lat": 26.3791496,
      "lng": 127.8573107
    },
    {
      "name": "村山市",
      "lat": 38.4836471,
      "lng": 140.3808616
    },
    {
      "name": "胎内市",
      "lat": 38.0596893,
      "lng": 139.4102658
    },
    {
      "name": "裾野市",
      "lat": 35.1738739,
      "lng": 138.9068006
    },
    {
      "name": "伊豆市",
      "lat": 34.9764551,
      "lng": 138.9467078
    },
    {
      "name": "浦添市",
      "lat": 26.2459242,
      "lng": 127.7219769
    },
    {
      "name": "熱海市",
      "lat": 35.096471,
      "lng": 139.0717866
    },
    {
      "name": "村上市",
      "lat": 38.2240529,
      "lng": 139.4799636
    },
    {
      "name": "酒田市",
      "lat": 38.9147229,
      "lng": 139.8364101
    },
    {
      "name": "小千谷市",
      "lat": 37.3142715,
      "lng": 138.7951327
    },
    {
      "name": "大治町",
      "lat": 35.170875,
      "lng": 136.824664
    },
    {
      "name": "西原町",
      "lat": 26.222921,
      "lng": 127.7589092
    },
    {
      "name": "和泊町",
      "lat": 27.392124,
      "lng": 128.6554414
    },
    {
      "name": "天城町",
      "lat": 27.8117886,
      "lng": 128.8974748
    },
    {
      "name": "小値賀町",
      "lat": 33.1910309,
      "lng": 129.0588966
    },
    {
      "name": "竹富町",
      "lat": 24.3298956,
      "lng": 124.0879552
    },
    {
      "name": "軽米町",
      "lat": 40.3267477,
      "lng": 141.4607743
    },
    {
      "name": "楢葉町",
      "lat": 37.2826093,
      "lng": 140.9933446
    },
    {
      "name": "壬生町",
      "lat": 36.4273553,
      "lng": 139.8046821
    },
    {
      "name": "美浜町",
      "lat": 34.7787686,
      "lng": 136.9082459
    },
    {
      "name": "南知多町",
      "lat": 34.7150958,
      "lng": 136.9300341
    },
    {
      "name": "武豊町",
      "lat": 34.8510184,
      "lng": 136.9149138
    },
    {
      "name": "蟹江町",
      "lat": 35.1322598,
      "lng": 136.786816
    },
    {
      "name": "日野町",
      "lat": 35.0180606,
      "lng": 136.2460616
    },
    {
      "name": "井手町",
      "lat": 34.8006257,
      "lng": 135.8146629
    },
    {
      "name": "屋久島町",
      "lat": 30.3901743,
      "lng": 130.6510641
    },
    {
      "name": "龍郷町",
      "lat": 28.4132973,
      "lng": 129.5893008
    },
    {
      "name": "喜界町",
      "lat": 28.3171831,
      "lng": 129.9398802
    },
    {
      "name": "徳之島町",
      "lat": 27.7265813,
      "lng": 129.0185432
    },
    {
      "name": "瀬戸内町",
      "lat": 28.1465781,
      "lng": 129.3144629
    },
    {
      "name": "伊仙町",
      "lat": 27.6734276,
      "lng": 128.9376957
    },
    {
      "name": "本部町",
      "lat": 26.6577813,
      "lng": 127.8978468
    },
    {
      "name": "知名町",
      "lat": 27.3385068,
      "lng": 128.574157
    },
    {
      "name": "北谷町",
      "lat": 26.3200991,
      "lng": 127.7636827
    },
    {
      "name": "嘉手納町",
      "lat": 26.3617602,
      "lng": 127.7554216
    },
    {
      "name": "南風原町",
      "lat": 26.1911514,
      "lng": 127.7285751
    },
    {
      "name": "八重瀬町",
      "lat": 26.158273,
      "lng": 127.7187514
    },
    {
      "name": "与那原町",
      "lat": 26.1997938,
      "lng": 127.7547061
    },
    {
      "name": "金武町",
      "lat": 26.4560814,
      "lng": 127.9260347
    },
    {
      "name": "矢祭町",
      "lat": 36.8718111,
      "lng": 140.4252144
    },
    {
      "name": "新上五島町",
      "lat": 32.984431,
      "lng": 129.0732539
    },
    {
      "name": "利尻町",
      "lat": 45.187034,
      "lng": 141.1396291
    },
    {
      "name": "時津町",
      "lat": 32.8338049,
      "lng": 129.830303
    },
    {
      "name": "美里町",
      "lat": 36.1771628,
      "lng": 139.1816793
    },
    {
      "name": "深浦町",
      "lat": 40.6473448,
      "lng": 139.927454
    },
    {
      "name": "藤里町",
      "lat": 40.2783665,
      "lng": 140.2616767
    },
    {
      "name": "出雲崎町",
      "lat": 37.5306685,
      "lng": 138.7095075
    },
    {
      "name": "川北町",
      "lat": 36.4696894,
      "lng": 136.5482044
    },
    {
      "name": "池田町",
      "lat": 35.8906633,
      "lng": 136.342306
    },
    {
      "name": "高野町",
      "lat": 34.215788,
      "lng": 135.5872944
    },
    {
      "name": "皆野町",
      "lat": 36.0708269,
      "lng": 139.0986454
    },
    {
      "name": "愛別町",
      "lat": 43.9067386,
      "lng": 142.5776796
    },
    {
      "name": "浦臼町",
      "lat": 43.4304473,
      "lng": 141.8192017
    },
    {
      "name": "上砂川町",
      "lat": 43.4825515,
      "lng": 141.9842745
    },
    {
      "name": "栗山町",
      "lat": 43.0562873,
      "lng": 141.7842989
    },
    {
      "name": "羅臼町",
      "lat": 44.0218752,
      "lng": 145.1897435
    },
    {
      "name": "美郷町",
      "lat": 35.076686,
      "lng": 132.590561
    },
    {
      "name": "東庄町",
      "lat": 35.8371096,
      "lng": 140.6688917
    },
    {
      "name": "厚岸町",
      "lat": 43.0518221,
      "lng": 144.8476917
    },
    {
      "name": "森町",
      "lat": 34.8355508,
      "lng": 137.9270893
    },
    {
      "name": "小山町",
      "lat": 35.3601154,
      "lng": 138.9872233
    },
    {
      "name": "階上町",
      "lat": 40.4522877,
      "lng": 141.6211827
    },
    {
      "name": "横芝光町",
      "lat": 35.66582,
      "lng": 140.5048541
    },
    {
      "name": "吉田町",
      "lat": 34.7709304,
      "lng": 138.251951
    },
    {
      "name": "東伊豆町",
      "lat": 34.7728171,
      "lng": 139.0412102
    },
    {
      "name": "西伊豆町",
      "lat": 34.7716333,
      "lng": 138.7753118
    },
    {
      "name": "川根本町",
      "lat": 35.0468744,
      "lng": 138.0817607
    },
    {
      "name": "かつらぎ町",
      "lat": 34.2967556,
      "lng": 135.5043891
    },
    {
      "name": "別海町",
      "lat": 43.39406,
      "lng": 145.1170779
    },
    {
      "name": "松田町",
      "lat": 35.3481646,
      "lng": 139.1393816
    },
    {
      "name": "涌谷町",
      "lat": 38.5396261,
      "lng": 141.1281056
    },
    {
      "name": "益子町",
      "lat": 36.4673502,
      "lng": 140.0935974
    },
    {
      "name": "睦沢町",
      "lat": 35.3610855,
      "lng": 140.3195026
    },
    {
      "name": "多古町",
      "lat": 35.7357344,
      "lng": 140.4677155
    },
    {
      "name": "阿南町",
      "lat": 35.3233881,
      "lng": 137.8161909
    },
    {
      "name": "軽井沢町",
      "lat": 36.3482938,
      "lng": 138.5969968
    }
  ],
  "timestamp": "2025-11-19T15:41:45.709Z",
  "count": 130
}